{"sensors": {"gyro": {"x": -5.376751, "y": 2.096962, "z": -0.705878}, "acc": {"x": -1.020873, "y": -0.033887, "z": -0.028862}, "mag": {"x": -0.082264, "y": 0.071932, "z": 0.040348}, "lat": 0, "lon": 0, "pitch": 1.527222, "yaw": -0.960689, "roll": -2.276288, "alt": 1398.361, "pres": 86101.02, "hum": 12.02832, "temp": 42.3}, "time": 1250310}
{"sensors": {"gyro": {"x": -5.265651, "y": 2.10632, "z": -0.722203}, "acc": {"x": -1.0205, "y": -0.033149, "z": -0.027445}, "mag": {"x": -0.081116, "y": 0.073332, "z": 0.041832}, "lat": 0, "lon": 0, "pitch": 1.52865, "yaw": -0.944139, "roll": -2.262345, "alt": 1398.084, "pres": 86104.02, "hum": 12.0625, "temp": 42.3}, "time": 1250610}
{"sensors": {"gyro": {"x": -5.283521, "y": 2.103306, "z": -0.717762}, "acc": {"x": -1.019335, "y": -0.033546, "z": -0.026934}, "mag": {"x": -0.081536, "y": 0.073164, "z": 0.03962}, "lat": 0, "lon": 0, "pitch": 1.528617, "yaw": -0.947848, "roll": -2.247296, "alt": 1398.291, "pres": 86097.34, "hum": 12.39844, "temp": 42.31}, "time": 1250911}
{"sensors": {"gyro": {"x": -5.280317, "y": 2.106145, "z": -0.70546}, "acc": {"x": -1.019244, "y": -0.033571, "z": -0.025146}, "mag": {"x": -0.081312, "y": 0.073444, "z": 0.04046}, "lat": 0, "lon": 0, "pitch": 1.529667, "yaw": -0.944581, "roll": -2.213678, "alt": 1397.667, "pres": 86099.84, "hum": 12.1416, "temp": 42.31}, "time": 1251231}
{"sensors": {"gyro": {"x": -5.276004, "y": 2.106666, "z": -0.685118}, "acc": {"x": -1.018416, "y": -0.033152, "z": -0.025338}, "mag": {"x": -0.080724, "y": 0.07462, "z": 0.041916}, "lat": 0, "lon": 0, "pitch": 1.529847, "yaw": -0.933056, "roll": -2.22339, "alt": 1398.151, "pres": 86103.27, "hum": 12.07324, "temp": 42.3}, "time": 1252310}
{"sensors": {"gyro": {"x": -5.272553, "y": 2.075583, "z": -0.703844}, "acc": {"x": -1.018167, "y": -0.033268, "z": -0.024943}, "mag": {"x": -0.081088, "y": 0.072352, "z": 0.039704}, "lat": 0, "lon": 0, "pitch": 1.52998, "yaw": -0.950656, "roll": -2.214144, "alt": 1398.845, "pres": 86097.26, "hum": 12.36523, "temp": 42.3}, "time": 1252611}
{"sensors": {"gyro": {"x": -5.280293, "y": 2.064716, "z": -0.717075}, "acc": {"x": -1.016529, "y": -0.033288, "z": -0.024517}, "mag": {"x": -0.081508, "y": 0.073248, "z": 0.04004}, "lat": 0, "lon": 0, "pitch": 1.530149, "yaw": -0.947107, "roll": -2.205616, "alt": 1398.845, "pres": 86096.66, "hum": 11.93945, "temp": 42.3}, "time": 1252912}
{"sensors": {"gyro": {"x": -5.333735, "y": 2.054273, "z": -0.71191}, "acc": {"x": -1.016671, "y": -0.032364, "z": -0.023689}, "mag": {"x": -0.080976, "y": 0.071764, "z": 0.040684}, "lat": 0, "lon": 0, "pitch": 1.531367, "yaw": -0.954022, "roll": -2.202637, "alt": 1398.638, "pres": 86098.5, "hum": 12.05078, "temp": 42.3}, "time": 1253230}
{"sensors": {"gyro": {"x": -5.376488, "y": 2.016168, "z": -0.749778}, "acc": {"x": -1.01765, "y": -0.025428, "z": -0.024526}, "mag": {"x": -0.081032, "y": 0.072688, "z": 0.040656}, "lat": 0, "lon": 0, "pitch": 1.536094, "yaw": -0.94801, "roll": -2.338149, "alt": 1398.568, "pres": 86099.32, "hum": 12.11816, "temp": 42.31}, "time": 1254310}
{"sensors": {"gyro": {"x": -5.354691, "y": 2.020685, "z": -0.759073}, "acc": {"x": -1.018055, "y": -0.026394, "z": -0.025258}, "mag": {"x": -0.081228, "y": 0.073892, "z": 0.040684}, "lat": 0, "lon": 0, "pitch": 1.534928, "yaw": -0.94104, "roll": -2.334203, "alt": 1398.775, "pres": 86097.51, "hum": 12.08496, "temp": 42.31}, "time": 1254611}
{"sensors": {"gyro": {"x": -5.430002, "y": 2.050548, "z": -0.757758}, "acc": {"x": -1.017818, "y": -0.028886, "z": -0.025184}, "mag": {"x": -0.081256, "y": 0.072884, "z": 0.039004}, "lat": 0, "lon": 0, "pitch": 1.533162, "yaw": -0.948044, "roll": -2.287822, "alt": 1398.498, "pres": 86102.4, "hum": 11.86035, "temp": 42.3}, "time": 1254911}
{"sensors": {"gyro": {"x": -5.404502, "y": 2.079688, "z": -0.723457}, "acc": {"x": -1.016799, "y": -0.029343, "z": -0.024929}, "mag": {"x": -0.081368, "y": 0.07252, "z": 0.039704}, "lat": 0, "lon": 0, "pitch": 1.532947, "yaw": -0.951216, "roll": -2.275044, "alt": 1398.845, "pres": 86097.17, "hum": 12.32031, "temp": 42.31}, "time": 1255229}
{"sensors": {"gyro": {"x": -5.342102, "y": 2.087251, "z": -0.746765}, "acc": {"x": -1.016801, "y": -0.029135, "z": -0.02486}, "mag": {"x": -0.081648, "y": 0.074116, "z": 0.041664}, "lat": 0, "lon": 0, "pitch": 1.533147, "yaw": -0.942101, "roll": -2.27718, "alt": 1398.705, "pres": 86097.93, "hum": 12.23047, "temp": 42.31}, "time": 1256310}
{"sensors": {"gyro": {"x": -5.337681, "y": 2.077551, "z": -0.723412}, "acc": {"x": -1.01751, "y": -0.030397, "z": -0.024439}, "mag": {"x": -0.080444, "y": 0.073836, "z": 0.04158}, "lat": 0, "lon": 0, "pitch": 1.532484, "yaw": -0.936588, "roll": -2.247968, "alt": 1398.428, "pres": 86100.55, "hum": 11.83887, "temp": 42.32}, "time": 1256610}
{"sensors": {"gyro": {"x": -5.320145, "y": 2.066291, "z": -0.73448}, "acc": {"x": -1.017114, "y": -0.030795, "z": -0.024382}, "mag": {"x": -0.08106, "y": 0.073248, "z": 0.042812}, "lat": 0, "lon": 0, "pitch": 1.532197, "yaw": -0.944366, "roll": -2.240484, "alt": 1398.081, "pres": 86101.45, "hum": 12.07422, "temp": 42.31}, "time": 1256911}
{"sensors": {"gyro": {"x": -5.306117, "y": 2.062532, "z": -0.725834}, "acc": {"x": -1.014174, "y": -0.030919, "z": -0.024373}, "mag": {"x": -0.08022, "y": 0.072828, "z": 0.041804}, "lat": 0, "lon": 0, "pitch": 1.531995, "yaw": -0.942044, "roll": -2.238358, "alt": 1397.597, "pres": 86108.51, "hum": 12.02832, "temp": 42.31}, "time": 1257229}
{"sensors": {"gyro": {"x": -5.322894, "y": 2.061276, "z": -0.745167}, "acc": {"x": -0.99917, "y": -0.032336, "z": -0.02971}, "mag": {"x": -0.08078, "y": 0.071148, "z": 0.041104}, "lat": 0, "lon": 0, "pitch": 1.526876, "yaw": -0.957097, "roll": -2.313899, "alt": 1399.052, "pres": 86095.88, "hum": 12.3877, "temp": 42.32}, "time": 1258310}
{"sensors": {"gyro": {"x": -5.318815, "y": 2.125021, "z": -0.758884}, "acc": {"x": -1.012104, "y": -0.02582, "z": -0.027355}, "mag": {"x": -0.080304, "y": 0.073332, "z": 0.040992}, "lat": 0, "lon": 0, "pitch": 1.533647, "yaw": -0.939132, "roll": -2.385052, "alt": 1398.636, "pres": 86098.45, "hum": 12.08496, "temp": 42.33}, "time": 1258611}
{"sensors": {"gyro": {"x": -5.347052, "y": 2.111267, "z": -0.731357}, "acc": {"x": -1.012533, "y": -0.026378, "z": -0.026203}, "mag": {"x": -0.079604, "y": 0.072968, "z": 0.041104}, "lat": 0, "lon": 0, "pitch": 1.534093, "yaw": -0.93725, "roll": -2.352865, "alt": 1397.941, "pres": 86105.06, "hum": 12.09668, "temp": 42.31}, "time": 1258912}
{"sensors": {"gyro": {"x": -5.357392, "y": 2.061763, "z": -0.737336}, "acc": {"x": -1.0134, "y": -0.027044, "z": -0.025342}, "mag": {"x": -0.080808, "y": 0.073724, "z": 0.040292}, "lat": 0, "lon": 0, "pitch": 1.534241, "yaw": -0.939593, "roll": -2.323723, "alt": 1398.982, "pres": 86096.18, "hum": 11.98438, "temp": 42.32}, "time": 1259229}
{"sensors": {"gyro": {"x": -5.379663, "y": 2.072911, "z": -0.770119}, "acc": {"x": -1.014167, "y": -0.028308, "z": -0.02397}, "mag": {"x": -0.079324, "y": 0.073472, "z": 0.040992}, "lat": 0, "lon": 0, "pitch": 1.534237, "yaw": -0.932064, "roll": -2.273403, "alt": 1398.566, "pres": 86099.11, "hum": 12.43262, "temp": 42.32}, "time": 1260310}
{"sensors": {"gyro": {"x": -5.343231, "y": 2.081828, "z": -0.785845}, "acc": {"x": -1.014354, "y": -0.029808, "z": -0.02341}, "mag": {"x": -0.079744, "y": 0.07336, "z": 0.042504}, "lat": 0, "lon": 0, "pitch": 1.533448, "yaw": -0.935456, "roll": -2.236536, "alt": 1398.012, "pres": 86104.48, "hum": 12.06348, "temp": 42.33}, "time": 1260611}
{"sensors": {"gyro": {"x": -5.382335, "y": 2.113463, "z": -0.787926}, "acc": {"x": -1.013649, "y": -0.029922, "z": -0.022436}, "mag": {"x": -0.079128, "y": 0.073528, "z": 0.040852}, "lat": 0, "lon": 0, "pitch": 1.533917, "yaw": -0.93045, "roll": -2.214189, "alt": 1397.872, "pres": 86106.3, "hum": 12.08496, "temp": 42.33}, "time": 1260912}
{"sensors": {"gyro": {"x": -5.380368, "y": 2.16677, "z": -0.798341}, "acc": {"x": -1.013757, "y": -0.030513, "z": -0.022061}, "mag": {"x": -0.080864, "y": 0.072772, "z": 0.040768}, "lat": 0, "lon": 0, "pitch": 1.533672, "yaw": -0.946404, "roll": -2.196778, "alt": 1398.495, "pres": 86100.77, "hum": 11.96191, "temp": 42.33}, "time": 1261229}
{"sensors": {"gyro": {"x": -5.438294, "y": 2.177916, "z": -0.810173}, "acc": {"x": -1.026616, "y": -0.036403, "z": -0.022626}, "mag": {"x": -0.081424, "y": 0.072744, "z": 0.040684}, "lat": 0, "lon": 0, "pitch": 1.52907, "yaw": -0.950026, "roll": -2.126902, "alt": 1397.941, "pres": 86100.22, "hum": 12.5, "temp": 42.32}, "time": 1262310}
{"sensors": {"gyro": {"x": -5.428636, "y": 2.211333, "z": -0.796888}, "acc": {"x": -1.011649, "y": -0.034808, "z": -0.017564}, "mag": {"x": -0.080388, "y": 0.07294, "z": 0.041916}, "lat": 0, "lon": 0, "pitch": 1.532276, "yaw": -0.942321, "roll": -2.038117, "alt": 1398.566, "pres": 86099.52, "hum": 12.09668, "temp": 42.33}, "time": 1262611}
{"sensors": {"gyro": {"x": -5.399909, "y": 2.199566, "z": -0.756511}, "acc": {"x": -1.012852, "y": -0.034239, "z": -0.018541}, "mag": {"x": -0.080108, "y": 0.072996, "z": 0.041244}, "lat": 0, "lon": 0, "pitch": 1.532373, "yaw": -0.940202, "roll": -2.067098, "alt": 1398.495, "pres": 86100.09, "hum": 11.98438, "temp": 42.33}, "time": 1262911}
{"sensors": {"gyro": {"x": -5.341927, "y": 2.218153, "z": -0.745208}, "acc": {"x": -1.013741, "y": -0.033967, "z": -0.018798}, "mag": {"x": -0.080304, "y": 0.073052, "z": 0.042532}, "lat": 0, "lon": 0, "pitch": 1.53252, "yaw": -0.941037, "roll": -2.076252, "alt": 1398.148, "pres": 86103.33, "hum": 12.10742, "temp": 42.33}, "time": 1263229}
{"sensors": {"gyro": {"x": -5.306041, "y": 2.180522, "z": -0.748417}, "acc": {"x": -1.014062, "y": -0.033493, "z": -0.018649}, "mag": {"x": -0.080024, "y": 0.073276, "z": 0.042056}, "lat": 0, "lon": 0, "pitch": 1.533011, "yaw": -0.937773, "roll": -2.078852, "alt": 1398.773, "pres": 86100.48, "hum": 12.25391, "temp": 42.33}, "time": 1264310}
{"sensors": {"gyro": {"x": -5.308833, "y": 2.124168, "z": -0.733483}, "acc": {"x": -1.014477, "y": -0.033407, "z": -0.018823}, "mag": {"x": -0.080192, "y": 0.073304, "z": 0.040796}, "lat": 0, "lon": 0, "pitch": 1.533016, "yaw": -0.938627, "roll": -2.083914, "alt": 1398.426, "pres": 86100.82, "hum": 12.06348, "temp": 42.33}, "time": 1264611}
{"sensors": {"gyro": {"x": -5.319817, "y": 2.112334, "z": -0.749537}, "acc": {"x": -1.014943, "y": -0.033228, "z": -0.019158}, "mag": {"x": -0.080612, "y": 0.072324, "z": 0.040852}, "lat": 0, "lon": 0, "pitch": 1.533024, "yaw": -0.947923, "roll": -2.0938, "alt": 1398.148, "pres": 86103.4, "hum": 12.09668, "temp": 42.32}, "time": 1264913}
{"sensors": {"gyro": {"x": -5.328603, "y": 2.129118, "z": -0.764129}, "acc": {"x": -1.015195, "y": -0.032792, "z": -0.02089}, "mag": {"x": -0.079828, "y": 0.074004, "z": 0.040432}, "lat": 0, "lon": 0, "pitch": 1.532516, "yaw": -0.931625, "roll": -2.137996, "alt": 1398.843, "pres": 86097.3, "hum": 12.07422, "temp": 42.33}, "time": 1265229}
{"sensors": {"gyro": {"x": -5.248133, "y": 2.112794, "z": -0.761804}, "acc": {"x": -1.02324, "y": -0.028942, "z": -0.021518}, "mag": {"x": -0.08036, "y": 0.072856, "z": 0.040628}, "lat": 0, "lon": 0, "pitch": 1.535565, "yaw": -0.942721, "roll": -2.210121, "alt": 1398.426, "pres": 86095.43, "hum": 11.79395, "temp": 42.33}, "time": 1266310}
{"sensors": {"gyro": {"x": -5.302756, "y": 2.096235, "z": -0.786193}, "acc": {"x": -1.009278, "y": -0.035732, "z": -0.024425}, "mag": {"x": -0.081816, "y": 0.0728, "z": 0.04214}, "lat": 0, "lon": 0, "pitch": 1.527938, "yaw": -0.952029, "roll": -2.170403, "alt": 1398.426, "pres": 86100.31, "hum": 12.06348, "temp": 42.34}, "time": 1266611}
{"sensors": {"gyro": {"x": -5.300955, "y": 2.128488, "z": -0.761954}, "acc": {"x": -1.01115, "y": -0.034795, "z": -0.023664}, "mag": {"x": -0.081004, "y": 0.072968, "z": 0.04228}, "lat": 0, "lon": 0, "pitch": 1.529205, "yaw": -0.945927, "roll": -2.168026, "alt": 1398.633, "pres": 86098.91, "hum": 12.07422, "temp": 42.34}, "time": 1266912}
{"sensors": {"gyro": {"x": -5.334514, "y": 2.152541, "z": -0.753064}, "acc": {"x": -1.012746, "y": -0.034046, "z": -0.023311}, "mag": {"x": -0.081116, "y": 0.072044, "z": 0.039508}, "lat": 0, "lon": 0, "pitch": 1.530076, "yaw": -0.952946, "roll": -2.171165, "alt": 1398.633, "pres": 86098.77, "hum": 11.91699, "temp": 42.33}, "time": 1267229}
{"sensors": {"gyro": {"x": -5.294861, "y": 2.163033, "z": -0.754701}, "acc": {"x": -1.013314, "y": -0.03391, "z": -0.022174}, "mag": {"x": -0.080724, "y": 0.07336, "z": 0.0406}, "lat": 0, "lon": 0, "pitch": 1.530833, "yaw": -0.941539, "roll": -2.149916, "alt": 1398.426, "pres": 86103.2, "hum": 12.41113, "temp": 42.33}, "time": 1268310}
{"sensors": {"gyro": {"x": -5.310389, "y": 2.199426, "z": -0.763011}, "acc": {"x": -1.013782, "y": -0.033436, "z": -0.022961}, "mag": {"x": -0.079996, "y": 0.0728, "z": 0.040404}, "lat": 0, "lon": 0, "pitch": 1.530809, "yaw": -0.940844, "roll": -2.172557, "alt": 1398.703, "pres": 86098.55, "hum": 12.05176, "temp": 42.33}, "time": 1268610}
{"sensors": {"gyro": {"x": -5.331562, "y": 2.176041, "z": -0.757409}, "acc": {"x": -1.014655, "y": -0.033568, "z": -0.022248}, "mag": {"x": -0.080136, "y": 0.073192, "z": 0.040628}, "lat": 0, "lon": 0, "pitch": 1.531127, "yaw": -0.939041, "roll": -2.156104, "alt": 1398.98, "pres": 86095.55, "hum": 12.06348, "temp": 42.34}, "time": 1268912}
{"sensors": {"gyro": {"x": -5.341499, "y": 2.183583, "z": -0.756427}, "acc": {"x": -1.014623, "y": -0.033552, "z": -0.021117}, "mag": {"x": -0.079156, "y": 0.072716, "z": 0.041244}, "lat": 0, "lon": 0, "pitch": 1.531743, "yaw": -0.936162, "roll": -2.132537, "alt": 1398.633, "pres": 86106.05, "hum": 12.06348, "temp": 42.34}, "time": 1269229}
{"sensors": {"gyro": {"x": -5.32845, "y": 2.184366, "z": -0.739892}, "acc": {"x": -1.015706, "y": -0.033393, "z": -0.021042}, "mag": {"x": -0.080584, "y": 0.073024, "z": 0.040404}, "lat": 0, "lon": 0, "pitch": 1.531956, "yaw": -0.94296, "roll": -2.133067, "alt": 1398.286, "pres": 86102.66, "hum": 11.98535, "temp": 42.34}, "time": 1270309}
{"sensors": {"gyro": {"x": -5.35301, "y": 2.160493, "z": -0.726663}, "acc": {"x": -1.024321, "y": -0.028191, "z": -0.019176}, "mag": {"x": -0.079408, "y": 0.071848, "z": 0.042336}, "lat": 0, "lon": 0, "pitch": 1.537524, "yaw": -0.943723, "roll": -2.168118, "alt": 1398.633, "pres": 86099.14, "hum": 12.05176, "temp": 42.34}, "time": 1270612}
{"sensors": {"gyro": {"x": -5.362158, "y": 2.157145, "z": -0.702081}, "acc": {"x": -1.022282, "y": -0.029068, "z": -0.019781}, "mag": {"x": -0.079884, "y": 0.072408, "z": 0.040292}, "lat": 0, "lon": 0, "pitch": 1.536416, "yaw": -0.942834, "roll": -2.168338, "alt": 1398.633, "pres": 86098.79, "hum": 12.04102, "temp": 42.34}, "time": 1270913}
{"sensors": {"gyro": {"x": -5.416726, "y": 2.168466, "z": -0.712165}, "acc": {"x": -1.021224, "y": -0.029622, "z": -0.019766}, "mag": {"x": -0.081032, "y": 0.073108, "z": 0.040768}, "lat": 0, "lon": 0, "pitch": 1.535939, "yaw": -0.945146, "roll": -2.159207, "alt": 1398.563, "pres": 86099.39, "hum": 12.04102, "temp": 42.34}, "time": 1271229}
{"sensors": {"gyro": {"x": -5.456881, "y": 2.154773, "z": -0.735982}, "acc": {"x": -1.020146, "y": -0.029871, "z": -0.019448}, "mag": {"x": -0.079884, "y": 0.073696, "z": 0.041132}, "lat": 0, "lon": 0, "pitch": 1.53587, "yaw": -0.934053, "roll": -2.147923, "alt": 1398.84, "pres": 86104.54, "hum": 12.06348, "temp": 42.35}, "time": 1272311}
{"sensors": {"gyro": {"x": -5.499505, "y": 2.140318, "z": -0.720035}, "acc": {"x": -1.021894, "y": -0.030766, "z": -0.018865}, "mag": {"x": -0.0805, "y": 0.073528, "z": 0.041244}, "lat": 0, "lon": 0, "pitch": 1.535496, "yaw": -0.939017, "roll": -2.12085, "alt": 1398.147, "pres": 86103.79, "hum": 12.04102, "temp": 42.35}, "time": 1272612}
{"sensors": {"gyro": {"x": -5.482854, "y": 2.107754, "z": -0.695028}, "acc": {"x": -1.020133, "y": -0.031213, "z": -0.019081}, "mag": {"x": -0.081396, "y": 0.07322, "z": 0.040964}, "lat": 0, "lon": 0, "pitch": 1.534951, "yaw": -0.946613, "roll": -2.119505, "alt": 1398.701, "pres": 86098.63, "hum": 12.04102, "temp": 42.35}, "time": 1272912}
{"sensors": {"gyro": {"x": -5.410033, "y": 2.102704, "z": -0.694273}, "acc": {"x": -1.019395, "y": -0.031229, "z": -0.020182}, "mag": {"x": -0.082488, "y": 0.073808, "z": 0.041468}, "lat": 0, "lon": 0, "pitch": 1.534338, "yaw": -0.949262, "roll": -2.144531, "alt": 1398.701, "pres": 86098.12, "hum": 12.04102, "temp": 42.34}, "time": 1273229}
{"sensors": {"gyro": {"x": -5.355277, "y": 2.147663, "z": -0.697168}, "acc": {"x": -1.015498, "y": -0.031608, "z": -0.020781}, "mag": {"x": -0.080248, "y": 0.07294, "z": 0.040124}, "lat": 0, "lon": 0, "pitch": 1.533564, "yaw": -0.941453, "roll": -2.15241, "alt": 1398.286, "pres": 86094.25, "hum": 12.14258, "temp": 42.36}, "time": 1274309}
{"sensors": {"gyro": {"x": -5.430471, "y": 2.15038, "z": -0.708235}, "acc": {"x": -1.014467, "y": -0.027348, "z": -0.021139}, "mag": {"x": -0.08022, "y": 0.072212, "z": 0.040432}, "lat": 0, "lon": 0, "pitch": 1.536737, "yaw": -0.94627, "roll": -2.228836, "alt": 1398.076, "pres": 86103.41, "hum": 12.03027, "temp": 42.36}, "time": 1274611}
{"sensors": {"gyro": {"x": -5.457377, "y": 2.126304, "z": -0.710088}, "acc": {"x": -1.015265, "y": -0.028222, "z": -0.02145}, "mag": {"x": -0.081172, "y": 0.072884, "z": 0.04172}, "lat": 0, "lon": 0, "pitch": 1.535895, "yaw": -0.94753, "roll": -2.220682, "alt": 1398.561, "pres": 86099.88, "hum": 12.03027, "temp": 42.35}, "time": 1274912}
{"sensors": {"gyro": {"x": -5.473651, "y": 2.114043, "z": -0.69757}, "acc": {"x": -1.015659, "y": -0.028605, "z": -0.022564}, "mag": {"x": -0.08036, "y": 0.074424, "z": 0.04214}, "lat": 0, "lon": 0, "pitch": 1.53494, "yaw": -0.932115, "roll": -2.238691, "alt": 1397.869, "pres": 86105.87, "hum": 12.03027, "temp": 42.36}, "time": 1275229}
{"sensors": {"gyro": {"x": -5.376421, "y": 2.168985, "z": -0.705056}, "acc": {"x": -1.01545, "y": -0.029215, "z": -0.021455}, "mag": {"x": -0.080276, "y": 0.072464, "z": 0.041384}, "lat": 0, "lon": 0, "pitch": 1.535116, "yaw": -0.944884, "roll": -2.204224, "alt": 1397.729, "pres": 86107.74, "hum": 11.75, "temp": 42.36}, "time": 1276309}
{"sensors": {"gyro": {"x": -5.302137, "y": 2.186688, "z": -0.726795}, "acc": {"x": -1.015221, "y": -0.029558, "z": -0.021849}, "mag": {"x": -0.081368, "y": 0.073388, "z": 0.039648}, "lat": 0, "lon": 0, "pitch": 1.534607, "yaw": -0.945303, "roll": -2.207346, "alt": 1398.561, "pres": 86100.31, "hum": 11.99609, "temp": 42.35}, "time": 1276610}
{"sensors": {"gyro": {"x": -5.32496, "y": 2.2096, "z": -0.749436}, "acc": {"x": -1.015563, "y": -0.030588, "z": -0.020993}, "mag": {"x": -0.081368, "y": 0.072632, "z": 0.04074}, "lat": 0, "lon": 0, "pitch": 1.534282, "yaw": -0.95045, "roll": -2.172273, "alt": 1398.147, "pres": 86103.37, "hum": 11.96289, "temp": 42.36}, "time": 1276911}
{"sensors": {"gyro": {"x": -5.395718, "y": 2.16318, "z": -0.750049}, "acc": {"x": -1.01552, "y": -0.030607, "z": -0.022004}, "mag": {"x": -0.081704, "y": 0.073052, "z": 0.042252}, "lat": 0, "lon": 0, "pitch": 1.533694, "yaw": -0.949632, "roll": -2.1941, "alt": 1398.283, "pres": 86102.42, "hum": 11.97461, "temp": 42.36}, "time": 1277229}
{"sensors": {"gyro": {"x": -5.375324, "y": 2.199544, "z": -0.762789}, "acc": {"x": -1.014655, "y": -0.031135, "z": -0.02169}, "mag": {"x": -0.080192, "y": 0.072912, "z": 0.041664}, "lat": 0, "lon": 0, "pitch": 1.533417, "yaw": -0.941297, "roll": -2.17927, "alt": 1398.63, "pres": 86099.15, "hum": 12.05273, "temp": 42.36}, "time": 1278309}
{"sensors": {"gyro": {"x": -5.30476, "y": 2.197136, "z": -0.765981}, "acc": {"x": -1.015293, "y": -0.030044, "z": -0.023281}, "mag": {"x": -0.080556, "y": 0.073696, "z": 0.042336}, "lat": 0, "lon": 0, "pitch": 1.533378, "yaw": -0.938227, "roll": -2.230046, "alt": 1398.283, "pres": 86102, "hum": 11.97461, "temp": 42.36}, "time": 1278609}
{"sensors": {"gyro": {"x": -5.283308, "y": 2.179459, "z": -0.761535}, "acc": {"x": -1.015438, "y": -0.030806, "z": -0.022565}, "mag": {"x": -0.080304, "y": 0.07294, "z": 0.038528}, "lat": 0, "lon": 0, "pitch": 1.533208, "yaw": -0.9418, "roll": -2.203003, "alt": 1398.561, "pres": 86099.73, "hum": 11.96289, "temp": 42.36}, "time": 1278914}
{"sensors": {"gyro": {"x": -5.285397, "y": 2.139067, "z": -0.752728}, "acc": {"x": -1.015822, "y": -0.030562, "z": -0.021688}, "mag": {"x": -0.080724, "y": 0.072884, "z": 0.041356}, "lat": 0, "lon": 0, "pitch": 1.533922, "yaw": -0.944778, "roll": -2.187964, "alt": 1398.561, "pres": 86099.51, "hum": 11.96289, "temp": 42.36}, "time": 1279229}
{"sensors": {"gyro": {"x": -5.344817, "y": 2.120754, "z": -0.778932}, "acc": {"x": -1.015995, "y": -0.030903, "z": -0.022291}, "mag": {"x": -0.081172, "y": 0.072772, "z": 0.041356}, "lat": 0, "lon": 0, "pitch": 1.53331, "yaw": -0.948294, "roll": -2.195693, "alt": 1398.076, "pres": 86103.93, "hum": 11.81738, "temp": 42.35}, "time": 1280309}
{"sensors": {"gyro": {"x": -5.357354, "y": 2.162103, "z": -0.745646}, "acc": {"x": -1.016036, "y": -0.031408, "z": -0.021725}, "mag": {"x": -0.08022, "y": 0.072772, "z": 0.040068}, "lat": 0, "lon": 0, "pitch": 1.533227, "yaw": -0.942427, "roll": -2.175926, "alt": 1398.147, "pres": 86103.73, "hum": 11.96289, "temp": 42.36}, "time": 1280610}
{"sensors": {"gyro": {"x": -5.283383, "y": 2.111182, "z": -0.722517}, "acc": {"x": -1.015702, "y": -0.031471, "z": -0.021845}, "mag": {"x": -0.080556, "y": 0.074172, "z": 0.040544}, "lat": 0, "lon": 0, "pitch": 1.533097, "yaw": -0.935019, "roll": -2.177581, "alt": 1397.729, "pres": 86107.53, "hum": 11.96289, "temp": 42.36}, "time": 1280911}
{"sensors": {"gyro": {"x": -5.309957, "y": 2.101946, "z": -0.751263}, "acc": {"x": -1.018632, "y": -0.031411, "z": -0.021636}, "mag": {"x": -0.080556, "y": 0.073836, "z": 0.040432}, "lat": 0, "lon": 0, "pitch": 1.53337, "yaw": -0.937281, "roll": -2.17398, "alt": 1398.006, "pres": 86105.38, "hum": 11.97461, "temp": 42.36}, "time": 1281229}
{"sensors": {"gyro": {"x": -5.325965, "y": 2.092807, "z": -0.763761}, "acc": {"x": -1.018158, "y": -0.032107, "z": -0.021616}, "mag": {"x": -0.080136, "y": 0.073416, "z": 0.041748}, "lat": 0, "lon": 0, "pitch": 1.5328, "yaw": -0.937519, "roll": -2.163335, "alt": 1398.283, "pres": 86102.62, "hum": 11.96289, "temp": 42.37}, "time": 1282309}
{"sensors": {"gyro": {"x": -5.398272, "y": 2.095996, "z": -0.784259}, "acc": {"x": -1.014948, "y": -0.0322, "z": -0.021062}, "mag": {"x": -0.079828, "y": 0.074088, "z": 0.038948}, "lat": 0, "lon": 0, "pitch": 1.532904, "yaw": -0.931059, "roll": -2.15005, "alt": 1398.768, "pres": 86097.9, "hum": 11.95215, "temp": 42.36}, "time": 1282609}
{"sensors": {"gyro": {"x": -5.419368, "y": 2.131797, "z": -0.772657}, "acc": {"x": -1.014405, "y": -0.032543, "z": -0.021754}, "mag": {"x": -0.080472, "y": 0.073724, "z": 0.040796}, "lat": 0, "lon": 0, "pitch": 1.532226, "yaw": -0.937518, "roll": -2.160044, "alt": 1398.283, "pres": 86101.88, "hum": 11.96289, "temp": 42.37}, "time": 1282910}
{"sensors": {"gyro": {"x": -5.364494, "y": 2.139437, "z": -0.773876}, "acc": {"x": -1.031075, "y": -0.02856, "z": -0.015903}, "mag": {"x": -0.08036, "y": 0.073052, "z": 0.039312}, "lat": 0, "lon": 0, "pitch": 1.539103, "yaw": -0.941384, "roll": -2.078858, "alt": 1398.768, "pres": 86097.83, "hum": 11.96289, "temp": 42.36}, "time": 1283230}
{"sensors": {"gyro": {"x": -5.387095, "y": 2.1298, "z": -0.7801}, "acc": {"x": -1.028783, "y": -0.029961, "z": -0.017004}, "mag": {"x": -0.081396, "y": 0.073108, "z": 0.041636}, "lat": 0, "lon": 0, "pitch": 1.537323, "yaw": -0.947374, "roll": -2.087019, "alt": 1398.63, "pres": 86098.69, "hum": 11.96289, "temp": 42.37}, "time": 1284309}
{"sensors": {"gyro": {"x": -5.413927, "y": 2.13084, "z": -0.77283}, "acc": {"x": -1.025815, "y": -0.029922, "z": -0.017642}, "mag": {"x": -0.081144, "y": 0.07322, "z": 0.040936}, "lat": 0, "lon": 0, "pitch": 1.536948, "yaw": -0.945071, "roll": -2.103524, "alt": 1398.144, "pres": 86103.23, "hum": 11.95215, "temp": 42.36}, "time": 1284610}
{"sensors": {"gyro": {"x": -5.433641, "y": 2.124672, "z": -0.758264}, "acc": {"x": -1.023684, "y": -0.030916, "z": -0.018871}, "mag": {"x": -0.081088, "y": 0.073388, "z": 0.041272}, "lat": 0, "lon": 0, "pitch": 1.535428, "yaw": -0.943588, "roll": -2.118832, "alt": 1398.561, "pres": 86099.86, "hum": 11.97461, "temp": 42.37}, "time": 1284911}
{"sensors": {"gyro": {"x": -5.379413, "y": 2.098738, "z": -0.744861}, "acc": {"x": -1.022529, "y": -0.030992, "z": -0.019257}, "mag": {"x": -0.0812, "y": 0.07378, "z": 0.041188}, "lat": 0, "lon": 0, "pitch": 1.535128, "yaw": -0.941624, "roll": -2.126784, "alt": 1398.422, "pres": 86100.8, "hum": 11.95215, "temp": 42.38}, "time": 1285215}
{"sensors": {"gyro": {"x": -5.421781, "y": 2.06399, "z": -0.762139}, "acc": {"x": -1.021519, "y": -0.030661, "z": -0.019432}, "mag": {"x": -0.081648, "y": 0.072968, "z": 0.042728}, "lat": 0, "lon": 0, "pitch": 1.535276, "yaw": -0.949863, "roll": -2.135667, "alt": 1398.354, "pres": 86101.52, "hum": 11.96387, "temp": 42.38}, "time": 1286067}
{"sensors": {"gyro": {"x": -5.380425, "y": 2.053692, "z": -0.740961}, "acc": {"x": -1.019992, "y": -0.0308, "z": -0.018229}, "mag": {"x": -0.08274, "y": 0.074872, "z": 0.04438}, "lat": 0, "lon": 0, "pitch": 1.535722, "yaw": -0.943662, "roll": -2.105215, "alt": 1398.077, "pres": 86104.13, "hum": 11.94043, "temp": 42.37}, "time": 1287309}
{"sensors": {"gyro": {"x": -5.23884, "y": 2.101454, "z": -0.729269}, "acc": {"x": -1.019855, "y": -0.031338, "z": -0.018451}, "mag": {"x": -0.08134, "y": 0.07252, "z": 0.041384}, "lat": 0, "lon": 0, "pitch": 1.535153, "yaw": -0.951045, "roll": -2.102924, "alt": 1397.937, "pres": 86105.67, "hum": 11.90723, "temp": 42.37}, "time": 1287610}
{"sensors": {"gyro": {"x": -5.239322, "y": 2.169413, "z": -0.709415}, "acc": {"x": -1.019783, "y": -0.030658, "z": -0.017591}, "mag": {"x": -0.08162, "y": 0.074284, "z": 0.04578}, "lat": 0, "lon": 0, "pitch": 1.53615, "yaw": -0.940803, "roll": -2.091722, "alt": 1398.976, "pres": 86096.3, "hum": 11.91797, "temp": 42.36}, "time": 1287911}
{"sensors": {"gyro": {"x": -5.318458, "y": 2.614031, "z": -0.719782}, "acc": {"x": -1.018041, "y": -0.031919, "z": -0.027493}, "mag": {"x": -0.082376, "y": 0.0742, "z": 0.04158}, "lat": 0, "lon": 0, "pitch": 1.529439, "yaw": -0.945953, "roll": -2.281827, "alt": 1398.354, "pres": 86101.06, "hum": 11.91895, "temp": 42.38}, "time": 1288229}
{"sensors": {"gyro": {"x": -5.280266, "y": 2.523474, "z": -0.701826}, "acc": {"x": -1.01821, "y": -0.031953, "z": -0.02563}, "mag": {"x": -0.081228, "y": 0.072324, "z": 0.041692}, "lat": 0, "lon": 0, "pitch": 1.530589, "yaw": -0.951705, "roll": -2.246829, "alt": 1398.007, "pres": 86104.72, "hum": 11.90723, "temp": 42.38}, "time": 1289309}
{"sensors": {"gyro": {"x": -5.286463, "y": 2.472029, "z": -0.706711}, "acc": {"x": -1.004229, "y": -0.032126, "z": -0.030581}, "mag": {"x": -0.080864, "y": 0.073164, "z": 0.040124}, "lat": 0, "lon": 0, "pitch": 1.526658, "yaw": -0.943732, "roll": -2.331567, "alt": 1397.8, "pres": 86106.98, "hum": 11.91895, "temp": 42.38}, "time": 1289609}
{"sensors": {"gyro": {"x": -5.273921, "y": 2.418624, "z": -0.728119}, "acc": {"x": -1.006159, "y": -0.031935, "z": -0.028454}, "mag": {"x": -0.081284, "y": 0.073332, "z": 0.040824}, "lat": 0, "lon": 0, "pitch": 1.528311, "yaw": -0.945169, "roll": -2.298624, "alt": 1398.354, "pres": 86102.13, "hum": 11.91797, "temp": 42.37}, "time": 1289910}
{"sensors": {"gyro": {"x": -5.223637, "y": 2.367149, "z": -0.729495}, "acc": {"x": -1.007923, "y": -0.032124, "z": -0.027412}, "mag": {"x": -0.081368, "y": 0.072996, "z": 0.040684}, "lat": 0, "lon": 0, "pitch": 1.528923, "yaw": -0.947965, "roll": -2.277213, "alt": 1398.144, "pres": 86103.58, "hum": 11.91895, "temp": 42.38}, "time": 1290229}
{"sensors": {"gyro": {"x": -5.321659, "y": 2.303219, "z": -0.734096}, "acc": {"x": -1.00881, "y": -0.032629, "z": -0.025248}, "mag": {"x": -0.08204, "y": 0.073416, "z": 0.03962}, "lat": 0, "lon": 0, "pitch": 1.529923, "yaw": -0.949202, "roll": -2.229352, "alt": 1398.007, "pres": 86104.97, "hum": 11.90723, "temp": 42.38}, "time": 1291309}
{"sensors": {"gyro": {"x": -5.344078, "y": 1.842575, "z": -0.722027}, "acc": {"x": -1.009897, "y": -0.032508, "z": -0.024993}, "mag": {"x": -0.080444, "y": 0.073612, "z": 0.041076}, "lat": 0, "lon": 0, "pitch": 1.530216, "yaw": -0.938102, "roll": -2.226236, "alt": 1398.561, "pres": 86100.03, "hum": 11.88574, "temp": 42.39}, "time": 1291610}
{"sensors": {"gyro": {"x": -5.313012, "y": 1.93081, "z": -0.726371}, "acc": {"x": -1.010426, "y": -0.037804, "z": -0.039648}, "mag": {"x": -0.081172, "y": 0.072996, "z": 0.040516}, "lat": 0, "lon": 0, "pitch": 1.516632, "yaw": -0.946767, "roll": -2.380008, "alt": 1398.142, "pres": 86103.38, "hum": 11.89648, "temp": 42.39}, "time": 1291911}
{"sensors": {"gyro": {"x": -5.41941, "y": 1.999648, "z": -0.735097}, "acc": {"x": -1.01313, "y": -0.037124, "z": -0.036452}, "mag": {"x": -0.080276, "y": 0.073696, "z": 0.039872}, "lat": 0, "lon": 0, "pitch": 1.519487, "yaw": -0.936492, "roll": -2.34707, "alt": 1398.211, "pres": 86103.08, "hum": 11.88477, "temp": 42.38}, "time": 1292229}
{"sensors": {"gyro": {"x": -5.403028, "y": 1.986469, "z": -0.729828}, "acc": {"x": -1.014927, "y": -0.035714, "z": -0.034371}, "mag": {"x": -0.080024, "y": 0.074088, "z": 0.041244}, "lat": 0, "lon": 0, "pitch": 1.521998, "yaw": -0.932282, "roll": -2.337044, "alt": 1398.284, "pres": 86102.38, "hum": 11.87402, "temp": 42.39}, "time": 1293308}
{"sensors": {"gyro": {"x": -2.362422, "y": 3.368925, "z": -1.465862}, "acc": {"x": -1.211662, "y": 0.01269, "z": -0.049054}, "mag": {"x": -0.08092, "y": 0.07224, "z": 0.0371}, "lat": 0, "lon": 0, "pitch": 1.529003, "yaw": -0.950395, "roll": 2.888459, "alt": 1409.302, "pres": 86001.41, "hum": 11.86328, "temp": 42.41}, "time": 1293609}
{"sensors": {"gyro": {"x": -2.110438, "y": 5.09964, "z": -4.69894}, "acc": {"x": -1.369051, "y": -0.058644, "z": 0.011167}, "mag": {"x": -0.082992, "y": 0.068124, "z": 0.034384}, "lat": 0, "lon": 0, "pitch": 1.527219, "yaw": -0.991855, "roll": -1.382632, "alt": 1420.61, "pres": 85887.85, "hum": 11.94238, "temp": 42.43}, "time": 1293910}
{"sensors": {"gyro": {"x": 0.507899, "y": 6.734462, "z": -8.405402}, "acc": {"x": -1.494961, "y": -0.03574, "z": -0.065901}, "mag": {"x": -0.086828, "y": 0.056196, "z": 0.030912}, "lat": 0, "lon": 0, "pitch": 1.520691, "yaw": -1.104769, "roll": -2.644659, "alt": 1441.458, "pres": 85701.3, "hum": 12.13379, "temp": 42.44}, "time": 1294228}
{"sensors": {"gyro": {"x": -12.14118, "y": 4.66657, "z": -10.85782}, "acc": {"x": -1.59569, "y": -0.160133, "z": -0.109768}, "mag": {"x": -0.085288, "y": 0.046228, "z": 0.029624}, "lat": 0, "lon": 0, "pitch": 1.449724, "yaw": -1.182484, "roll": -2.171713, "alt": 1466.46, "pres": 85439.52, "hum": 12.12207, "temp": 42.44}, "time": 1295309}
{"sensors": {"gyro": {"x": -21.15269, "y": 3.579256, "z": -9.494758}, "acc": {"x": -1.676273, "y": -0.141502, "z": -0.117131}, "mag": {"x": -0.086128, "y": 0.065576, "z": 0.028672}, "lat": 0, "lon": 0, "pitch": 1.461649, "yaw": -1.028438, "roll": -2.262244, "alt": 1571.844, "pres": 84458.81, "hum": 13.14258, "temp": 42.42}, "time": 1295610}
{"sensors": {"gyro": {"x": -39.22066, "y": 0.586655, "z": -9.214556}, "acc": {"x": -1.740739, "y": -0.166235, "z": -0.121838}, "mag": {"x": -0.086688, "y": 0.073584, "z": 0.024332}, "lat": 0, "lon": 0, "pitch": 1.452945, "yaw": -0.975363, "roll": -2.203282, "alt": 1609.579, "pres": 84021.29, "hum": 13.43359, "temp": 42.44}, "time": 1295910}
{"sensors": {"gyro": {"x": -52.30302, "y": 3.150324, "z": -8.328895}, "acc": {"x": -1.792312, "y": -0.200002, "z": -0.058601}, "mag": {"x": -0.086772, "y": 0.082376, "z": 0.010472}, "lat": 0, "lon": 0, "pitch": 1.455036, "yaw": -0.919766, "roll": -1.855822, "alt": 1656.96, "pres": 83553.05, "hum": 13.55762, "temp": 42.44}, "time": 1296228}
{"sensors": {"gyro": {"x": -74.45892, "y": 3.864259, "z": -7.875866}, "acc": {"x": -1.833571, "y": -0.260701, "z": -0.070244}, "mag": {"x": -0.087584, "y": 0.077252, "z": -0.012516}, "lat": 0, "lon": 0, "pitch": 1.424594, "yaw": -0.956382, "roll": -1.833989, "alt": 1708.754, "pres": 83044.42, "hum": 13.45605, "temp": 42.43}, "time": 1297309}
{"sensors": {"gyro": {"x": -96.37489, "y": 5.907157, "z": -6.596443}, "acc": {"x": -1.866577, "y": -0.272879, "z": -0.073312}, "mag": {"x": -0.084924, "y": 0.028308, "z": 0.024528}, "lat": 0, "lon": 0, "pitch": 1.420561, "yaw": -1.357431, "roll": -1.833259, "alt": 1920.592, "pres": 81128.62, "hum": 12.68262, "temp": 42.43}, "time": 1297610}
{"sensors": {"gyro": {"x": -119.4884, "y": 5.259476, "z": -4.409154}, "acc": {"x": -1.892983, "y": -0.323858, "z": -0.056917}, "mag": {"x": -0.086632, "y": 0.059444, "z": 0.032284}, "lat": 0, "lon": 0, "pitch": 1.398807, "yaw": -1.0778, "roll": -1.744767, "alt": 1987.218, "pres": 80358.35, "hum": 12.8623, "temp": 42.44}, "time": 1297912}
{"sensors": {"gyro": {"x": -141.6035, "y": 4.646831, "z": -4.918573}, "acc": {"x": -1.914107, "y": -0.348488, "z": -0.009275}, "mag": {"x": -0.0861, "y": 0.080556, "z": 0.003976}, "lat": 0, "lon": 0, "pitch": 1.390644, "yaw": -0.927037, "roll": -1.597406, "alt": 2058.183, "pres": 79669.04, "hum": 12.55957, "temp": 42.44}, "time": 1298228}
{"sensors": {"gyro": {"x": -146.503, "y": 5.204965, "z": -5.726859}, "acc": {"x": -1.931006, "y": -0.426569, "z": 0.054202}, "mag": {"x": -0.086436, "y": 0.064792, "z": -0.025116}, "lat": 0, "lon": 0, "pitch": 1.35169, "yaw": -1.035939, "roll": -1.444409, "alt": 2138.675, "pres": 78910.74, "hum": 12.02148, "temp": 42.44}, "time": 1299308}
{"sensors": {"gyro": {"x": -174.5464, "y": 4.657473, "z": -4.595487}, "acc": {"x": -1.944526, "y": -0.411637, "z": 0.012105}, "mag": {"x": -0.087192, "y": 0.077476, "z": 0.016576}, "lat": 0, "lon": 0, "pitch": 1.362098, "yaw": -0.952718, "roll": -1.541397, "alt": 2407.576, "pres": 76570.73, "hum": 10.62988, "temp": 42.44}, "time": 1299610}
{"sensors": {"gyro": {"x": -196.9811, "y": 6.604728, "z": -4.17864}, "acc": {"x": -1.955341, "y": -0.441061, "z": 0.067817}, "mag": {"x": -0.0875, "y": 0.055468, "z": -0.029288}, "lat": 0, "lon": 0, "pitch": 1.346421, "yaw": -1.114193, "roll": -1.418232, "alt": 2500.697, "pres": 75566.42, "hum": 10.34961, "temp": 42.44}, "time": 1299911}
{"sensors": {"gyro": {"x": -214.9289, "y": 6.724032, "z": -3.932662}, "acc": {"x": -1.963994, "y": -0.552417, "z": 0.123611}, "mag": {"x": -0.084224, "y": 0.017388, "z": 0.008876}, "lat": 0, "lon": 0, "pitch": 1.290174, "yaw": -1.475592, "roll": -1.350659, "alt": 2579.325, "pres": 74821.02, "hum": 10.06934, "temp": 42.44}, "time": 1300228}
{"sensors": {"gyro": {"x": -229.2871, "y": 7.137976, "z": -2.51613}, "acc": {"x": -1.970916, "y": -0.664779, "z": 0.154484}, "mag": {"x": -0.086436, "y": 0.075432, "z": 0.020468}, "lat": 0, "lon": 0, "pitch": 1.237438, "yaw": -0.96166, "roll": -1.342465, "alt": 2730.66, "pres": 73541.87, "hum": 9.856445, "temp": 42.46}, "time": 1301309}
{"sensors": {"gyro": {"x": -240.716, "y": 6.881131, "z": -0.359154}, "acc": {"x": -1.967987, "y": -0.695059, "z": 0.155234}, "mag": {"x": -0.086688, "y": 0.073948, "z": -0.019404}, "lat": 0, "lon": 0, "pitch": 1.223574, "yaw": -0.972927, "roll": -1.351063, "alt": 3070.321, "pres": 70702.34, "hum": 9.44043, "temp": 42.44}, "time": 1301610}
{"sensors": {"gyro": {"x": -249.9168, "y": 6.672155, "z": -2.082823}, "acc": {"x": -1.959007, "y": -0.744684, "z": 0.144878}, "mag": {"x": -0.084168, "y": 0.016352, "z": -0.007448}, "lat": 0, "lon": 0, "pitch": 1.20132, "yaw": -1.487294, "roll": -1.378646, "alt": 3171.445, "pres": 69657.97, "hum": 9.306641, "temp": 42.46}, "time": 1301911}
{"sensors": {"gyro": {"x": -257.2774, "y": 6.660724, "z": -3.936008}, "acc": {"x": -1.761076, "y": -0.717271, "z": 0.071751}, "mag": {"x": -0.085932, "y": 0.061712, "z": 0.0287}, "lat": 0, "lon": 0, "pitch": 1.182278, "yaw": -1.056378, "roll": -1.471095, "alt": 3267.728, "pres": 68792.42, "hum": 9.149414, "temp": 42.48}, "time": 1302228}
{"sensors": {"gyro": {"x": -263.1659, "y": 7.48283, "z": -7.921057}, "acc": {"x": -1.655337, "y": -0.796796, "z": 0.047958}, "mag": {"x": -0.087472, "y": 0.05936, "z": -0.027748}, "lat": 0, "lon": 0, "pitch": 1.121473, "yaw": -1.082951, "roll": -1.51068, "alt": 3377.304, "pres": 67874.16, "hum": 9.104492, "temp": 42.47}, "time": 1303308}
{"sensors": {"gyro": {"x": -267.8767, "y": 8.536014, "z": -6.797095}, "acc": {"x": -1.445892, "y": -0.795195, "z": 0.100159}, "mag": {"x": -0.086128, "y": 0.017696, "z": -0.006412}, "lat": 0, "lon": 0, "pitch": 1.064647, "yaw": -1.47654, "roll": -1.445501, "alt": 3750.984, "pres": 65013.88, "hum": 8.790039, "temp": 42.49}, "time": 1303609}
{"sensors": {"gyro": {"x": -271.6454, "y": 8.890311, "z": -4.473426}, "acc": {"x": -1.200035, "y": -0.772369, "z": 0.202567}, "mag": {"x": -0.087472, "y": 0.061572, "z": 0.02772}, "lat": 0, "lon": 0, "pitch": 0.983679, "yaw": -1.065839, "roll": -1.314306, "alt": 3854.071, "pres": 63982.3, "hum": 8.813477, "temp": 42.51}, "time": 1303911}
{"sensors": {"gyro": {"x": -274.6603, "y": 9.495749, "z": -5.027741}, "acc": {"x": -0.945632, "y": -0.714885, "z": 0.09183}, "mag": {"x": -0.087808, "y": 0.06062, "z": -0.0266}, "lat": 0, "lon": 0, "pitch": 0.919534, "yaw": -1.074948, "roll": -1.443042, "alt": 3959.576, "pres": 63124.13, "hum": 10.14941, "temp": 42.51}, "time": 1304228}
{"sensors": {"gyro": {"x": -277.0723, "y": 9.819099, "z": -5.446693}, "acc": {"x": -0.72647, "y": -0.779613, "z": 0.079442}, "mag": {"x": -0.084952, "y": 0.01904, "z": 0.010864}, "lat": 0, "lon": 0, "pitch": 0.747551, "yaw": -1.458698, "roll": -1.469247, "alt": 4068.197, "pres": 62269.42, "hum": 8.858398, "temp": 42.51}, "time": 1305213}
{"sensors": {"gyro": {"x": -279.0018, "y": 10.84428, "z": -4.957605}, "acc": {"x": -0.466239, "y": -0.746423, "z": 0.112097}, "mag": {"x": -0.086464, "y": 0.048972, "z": 0.030352}, "lat": 0, "lon": 0, "pitch": 0.553336, "yaw": -1.163845, "roll": -1.421731, "alt": 4400.466, "pres": 59884.13, "hum": 8.858398, "temp": 42.52}, "time": 1306069}
{"sensors": {"gyro": {"x": -280.5455, "y": 11.14992, "z": -5.730084}, "acc": {"x": -0.25198, "y": -0.771427, "z": 0.094168}, "mag": {"x": -0.089264, "y": 0.068012, "z": 0.0287}, "lat": 0, "lon": 0, "pitch": 0.313539, "yaw": -1.028095, "roll": -1.449328, "alt": 4679.351, "pres": 57774.91, "hum": 8.78418, "temp": 41.56}, "time": 1307214}
{"sensors": {"gyro": {"x": -281.7804, "y": 11.24569, "z": -5.655067}, "acc": {"x": -0.040239, "y": -0.676678, "z": 0.169213}, "mag": {"x": -0.084868, "y": 0.023744, "z": -0.019768}, "lat": 0, "lon": 0, "pitch": 0.057625, "yaw": -1.406381, "roll": -1.325757, "alt": 5014.295, "pres": 55387.43, "hum": 8.410156, "temp": 42.56}, "time": 1308067}
{"sensors": {"gyro": {"x": -282.7683, "y": 12.0958, "z": -5.565304}, "acc": {"x": 0.137584, "y": -0.633879, "z": 0.214597}, "mag": {"x": -0.0861, "y": 0.020188, "z": -0.006412}, "lat": 0, "lon": 0, "pitch": -0.202764, "yaw": -1.44887, "roll": -1.244362, "alt": 5269.582, "pres": 53540.02, "hum": 7.884766, "temp": 42.06}, "time": 1309214}
{"sensors": {"gyro": {"x": -281.3186, "y": 12.09514, "z": -5.661493}, "acc": {"x": 0.240656, "y": -0.616879, "z": 0.208619}, "mag": {"x": -0.083412, "y": 0.013832, "z": -0.00028}, "lat": 0, "lon": 0, "pitch": -0.353991, "yaw": -1.514849, "roll": -1.244685, "alt": 5596.054, "pres": 51359.86, "hum": 7.30957, "temp": 42.59}, "time": 1310067}
{"sensors": {"gyro": {"x": -271.2374, "y": 11.54511, "z": -5.237945}, "acc": {"x": 0.324627, "y": -0.600363, "z": 0.208437}, "mag": {"x": -0.091252, "y": 0.073024, "z": -0.00952}, "lat": 0, "lon": 0, "pitch": -0.472256, "yaw": -1.004291, "roll": -1.236632, "alt": 5810.481, "pres": 49868.2, "hum": 7.541992, "temp": 41.69}, "time": 1311214}
{"sensors": {"gyro": {"x": -260.3007, "y": 11.56884, "z": -4.659356}, "acc": {"x": 0.380664, "y": -0.571986, "z": 0.153951}, "mag": {"x": -0.085288, "y": 0.05614, "z": 0.030072}, "lat": 0, "lon": 0, "pitch": -0.571186, "yaw": -1.097035, "roll": -1.307874, "alt": 6102.402, "pres": 48043.68, "hum": 7.894531, "temp": 42.63}, "time": 1312067}
{"sensors": {"gyro": {"x": -256.1573, "y": 11.28332, "z": -4.985735}, "acc": {"x": 0.428435, "y": -0.530593, "z": 0.16125}, "mag": {"x": -0.085064, "y": 0.024304, "z": -0.022568}, "lat": 0, "lon": 0, "pitch": -0.657793, "yaw": -1.400882, "roll": -1.275762, "alt": 6284.783, "pres": 46828.13, "hum": 8.647461, "temp": 42.63}, "time": 1313214}
{"sensors": {"gyro": {"x": -254.4036, "y": 10.96216, "z": -4.202088}, "acc": {"x": 0.432771, "y": -0.483205, "z": 0.125608}, "mag": {"x": -0.08596, "y": 0.05978, "z": -0.026348}, "lat": 0, "lon": 0, "pitch": -0.714177, "yaw": -1.071522, "roll": -1.316477, "alt": 6525.81, "pres": 45370.95, "hum": 9.422852, "temp": 42.69}, "time": 1314068}
{"sensors": {"gyro": {"x": -254.0506, "y": 10.25898, "z": -4.26992}, "acc": {"x": 0.435985, "y": -0.441464, "z": 0.07572}, "mag": {"x": -0.086996, "y": 0.048972, "z": 0.037016}, "lat": 0, "lon": 0, "pitch": -0.771906, "yaw": -1.166471, "roll": -1.400928, "alt": 6693.56, "pres": 44321.13, "hum": 9.719727, "temp": 41.84}, "time": 1315214}
{"sensors": {"gyro": {"x": -254.0815, "y": 10.19168, "z": -4.625186}, "acc": {"x": 0.419938, "y": -0.392638, "z": 0.059003}, "mag": {"x": -0.082936, "y": 0.016268, "z": 0.016128}, "lat": 0, "lon": 0, "pitch": -0.81341, "yaw": -1.485489, "roll": -1.42164, "alt": 6913.637, "pres": 43054.77, "hum": 9.972656, "temp": 42.68}, "time": 1316067}
{"sensors": {"gyro": {"x": -254.171, "y": 9.457096, "z": -3.827899}, "acc": {"x": 0.39201, "y": -0.329275, "z": 0.075494}, "mag": {"x": -0.08736, "y": 0.057456, "z": -0.02968}, "lat": 0, "lon": 0, "pitch": -0.859513, "yaw": -1.097417, "roll": -1.345419, "alt": 7048.608, "pres": 42229.56, "hum": 10.09375, "temp": 42.03}, "time": 1317308}
{"sensors": {"gyro": {"x": -251.7383, "y": 8.843177, "z": -3.70632}, "acc": {"x": 0.373388, "y": -0.294835, "z": 0.086405}, "mag": {"x": -0.08624, "y": 0.077168, "z": -0.007924}, "lat": 0, "lon": 0, "pitch": -0.882287, "yaw": -0.949244, "roll": -1.285715, "alt": 7253.417, "pres": 41106.58, "hum": 9.793945, "temp": 42.68}, "time": 1317609}
{"sensors": {"gyro": {"x": -249.4491, "y": 8.679292, "z": -3.175056}, "acc": {"x": 0.356977, "y": -0.263355, "z": 0.066404}, "mag": {"x": -0.084672, "y": 0.043092, "z": -0.034608}, "lat": 0, "lon": 0, "pitch": -0.920403, "yaw": -1.208416, "roll": -1.323799, "alt": 7290.956, "pres": 40813.63, "hum": 9.849609, "temp": 42.68}, "time": 1317909}
{"sensors": {"gyro": {"x": -247.5531, "y": 8.541184, "z": -3.052794}, "acc": {"x": 0.339774, "y": -0.232583, "z": 0.048963}, "mag": {"x": -0.082768, "y": 0.01134, "z": -0.010136}, "lat": 0, "lon": 0, "pitch": -0.960389, "yaw": -1.54302, "roll": -1.363308, "alt": 7333.149, "pres": 40571.25, "hum": 9.771484, "temp": 42.68}, "time": 1318228}
{"sensors": {"gyro": {"x": -245.9189, "y": 8.071947, "z": -3.325986}, "acc": {"x": 0.313238, "y": -0.204635, "z": 0.069243}, "mag": {"x": -0.080472, "y": 0.026404, "z": 0.030548}, "lat": 0, "lon": 0, "pitch": -0.967034, "yaw": -1.362135, "roll": -1.244515, "alt": 7378.572, "pres": 40321.41, "hum": 9.445313, "temp": 42.69}, "time": 1319213}
{"sensors": {"gyro": {"x": -244.5556, "y": 7.754308, "z": -3.042289}, "acc": {"x": 0.288667, "y": -0.192061, "z": 0.077635}, "mag": {"x": -0.081956, "y": 0.025536, "z": -0.031332}, "lat": 0, "lon": 0, "pitch": -0.948331, "yaw": -1.377133, "roll": -1.186655, "alt": 7511.974, "pres": 39635.39, "hum": 9.635742, "temp": 42.67}, "time": 1320067}
{"sensors": {"gyro": {"x": -240.9188, "y": 7.197446, "z": -3.158331}, "acc": {"x": 0.266533, "y": -0.168764, "z": 0.071234}, "mag": {"x": -0.083664, "y": 0.077336, "z": 0.03346}, "lat": 0, "lon": 0, "pitch": -0.968661, "yaw": -0.933067, "roll": -1.171393, "alt": 7616, "pres": 39061.91, "hum": 9.660156, "temp": 41.64}, "time": 1321213}
{"sensors": {"gyro": {"x": -236.6723, "y": 6.699457, "z": -3.265165}, "acc": {"x": 0.246752, "y": -0.144113, "z": 0.051814}, "mag": {"x": -0.07742, "y": 0.01036, "z": 0.0168}, "lat": 0, "lon": 0, "pitch": -1.015338, "yaw": -1.546156, "roll": -1.225648, "alt": 7755.608, "pres": 38336.12, "hum": 10.00684, "temp": 42.67}, "time": 1322066}
{"sensors": {"gyro": {"x": -233.3328, "y": 5.895066, "z": -2.449382}, "acc": {"x": 0.215653, "y": -0.123196, "z": 0.0415}, "mag": {"x": -0.082964, "y": 0.0819, "z": -0.020356}, "lat": 0, "lon": 0, "pitch": -1.028313, "yaw": -0.900237, "roll": -1.245872, "alt": 7826.577, "pres": 37927.72, "hum": 9.626953, "temp": 41.68}, "time": 1323214}
{"sensors": {"gyro": {"x": -227.8857, "y": 4.772053, "z": -2.920255}, "acc": {"x": 0.190029, "y": -0.105742, "z": 0.043753}, "mag": {"x": -0.076216, "y": 0.054376, "z": 0.04284}, "lat": 0, "lon": 0, "pitch": -1.028756, "yaw": -1.059488, "roll": -1.178475, "alt": 7943.479, "pres": 37339.49, "hum": 9.041016, "temp": 42.69}, "time": 1324067}
{"sensors": {"gyro": {"x": -221.7693, "y": 4.795892, "z": -2.525204}, "acc": {"x": 0.169091, "y": -0.092768, "z": 0.037943}, "mag": {"x": -0.075572, "y": 0.043036, "z": -0.046452}, "lat": 0, "lon": 0, "pitch": -1.035731, "yaw": -1.161513, "roll": -1.18255, "alt": 7999.15, "pres": 37022.5, "hum": 8.832031, "temp": 41.74}, "time": 1325214}
{"sensors": {"gyro": {"x": -214.0955, "y": 3.694964, "z": -2.531163}, "acc": {"x": 0.149876, "y": -0.084072, "z": 0.02157}, "mag": {"x": -0.071204, "y": 0.076104, "z": 0.040404}, "lat": 0, "lon": 0, "pitch": -1.045879, "yaw": -0.860532, "roll": -1.319646, "alt": 8090.625, "pres": 36570.09, "hum": 8.018555, "temp": 42.67}, "time": 1326067}
{"sensors": {"gyro": {"x": -206.4881, "y": 4.338471, "z": -2.206931}, "acc": {"x": 0.132455, "y": -0.073077, "z": 0.023551}, "mag": {"x": -0.071232, "y": 0.03766, "z": -0.046312}, "lat": 0, "lon": 0, "pitch": -1.04547, "yaw": -1.192842, "roll": -1.259025, "alt": 8129.188, "pres": 36348.79, "hum": 7.674805, "temp": 41.59}, "time": 1327214}
{"sensors": {"gyro": {"x": -198.1115, "y": 2.963277, "z": -2.262545}, "acc": {"x": 0.114053, "y": -0.064159, "z": 0.015559}, "mag": {"x": -0.062468, "y": 0.068824, "z": 0.056336}, "lat": 0, "lon": 0, "pitch": -1.046078, "yaw": -0.84541, "roll": -1.332878, "alt": 8198.558, "pres": 36011.88, "hum": 7.108398, "temp": 42.63}, "time": 1328067}
{"sensors": {"gyro": {"x": -189.7407, "y": 3.460871, "z": -1.337536}, "acc": {"x": 0.096451, "y": -0.055817, "z": 0.007994}, "mag": {"x": -0.06216, "y": 0.070812, "z": -0.050876}, "lat": 0, "lon": 0, "pitch": -1.041771, "yaw": -0.828808, "roll": -1.428538, "alt": 8218.6, "pres": 35890.2, "hum": 6.833984, "temp": 41.59}, "time": 1329213}
{"sensors": {"gyro": {"x": -180.4803, "y": 2.731947, "z": -2.575029}, "acc": {"x": 0.084237, "y": -0.047215, "z": 0.00681}, "mag": {"x": -0.047628, "y": 0.007812, "z": 0.057596}, "lat": 0, "lon": 0, "pitch": -1.05552, "yaw": 3.033208, "roll": -1.427545, "alt": 8264.595, "pres": 35668.64, "hum": 6.625, "temp": 42.61}, "time": 1330068}
{"sensors": {"gyro": {"x": -172.2705, "y": 1.903808, "z": -1.179773}, "acc": {"x": 0.070391, "y": -0.044336, "z": 0.004448}, "mag": {"x": -0.04648, "y": 0.118048, "z": 0.008008}, "lat": 0, "lon": 0, "pitch": -1.006454, "yaw": -0.483482, "roll": -1.470809, "alt": 8267.822, "pres": 35632, "hum": 6.701172, "temp": 42.48}, "time": 1331213}
{"sensors": {"gyro": {"x": -166.0702, "y": 2.545046, "z": -0.093318}, "acc": {"x": 0.074088, "y": -0.046168, "z": -0.070044}, "mag": {"x": -0.027776, "y": -0.031304, "z": -0.03976}, "lat": 0, "lon": 0, "pitch": -0.723426, "yaw": -2.524224, "roll": -2.558827, "alt": 8248.242, "pres": 35716.25, "hum": 6.658203, "temp": 42.58}, "time": 1332066}
{"sensors": {"gyro": {"x": -190.2001, "y": 59.37128, "z": 35.50985}, "acc": {"x": 0.003602, "y": -0.436655, "z": 0.047396}, "mag": {"x": -0.053312, "y": 0.112616, "z": 0.04228}, "lat": 0, "lon": 0, "pitch": -0.008201, "yaw": -0.550524, "roll": -1.462676, "alt": 8329.168, "pres": 35362.6, "hum": 7.31543, "temp": 41.53}, "time": 1333214}
{"sensors": {"gyro": {"x": -202.5863, "y": -9.843475, "z": 20.84963}, "acc": {"x": -0.225612, "y": -0.404505, "z": -0.276526}, "mag": {"x": -0.049952, "y": 0.000616, "z": 0.05474}, "lat": 0, "lon": 0, "pitch": 0.431504, "yaw": 3.033208, "roll": -2.170441, "alt": 8353.713, "pres": 35218.07, "hum": 6.454102, "temp": 42.47}, "time": 1334067}
{"sensors": {"gyro": {"x": -199.1446, "y": 22.81147, "z": -20.6968}, "acc": {"x": -0.353217, "y": -0.115679, "z": -0.258968}, "mag": {"x": -0.08428, "y": 0.089852, "z": 0.031948}, "lat": 0, "lon": 0, "pitch": 0.894235, "yaw": -0.861795, "roll": -2.721491, "alt": 8310.377, "pres": 35396.56, "hum": 5.03125, "temp": 41.84}, "time": 1335213}
{"sensors": {"gyro": {"x": -192.6724, "y": -7.239576, "z": 29.23131}, "acc": {"x": -0.38309, "y": -0.140868, "z": -0.181554}, "mag": {"x": -0.022372, "y": 0.05278, "z": -0.073836}, "lat": 0, "lon": 0, "pitch": 1.030491, "yaw": -0.5093, "roll": -2.481721, "alt": 8273.28, "pres": 35580.33, "hum": 4.192383, "temp": 42.2}, "time": 1336067}
{"sensors": {"gyro": {"x": -139.9157, "y": -18.90966, "z": 24.4928}, "acc": {"x": -0.245496, "y": 0.096902, "z": -0.063198}, "mag": {"x": 0.016632, "y": 0.02352, "z": 0.093996}, "lat": 0, "lon": 0, "pitch": 1.130415, "yaw": 0.507119, "roll": 2.148708, "alt": 8257.137, "pres": 35671.12, "hum": 4.129883, "temp": 41.49}, "time": 1337214}
{"sensors": {"gyro": {"x": -125.7121, "y": -21.93698, "z": 39.03324}, "acc": {"x": -0.080107, "y": -0.190586, "z": 0.170823}, "mag": {"x": -0.023072, "y": 0.013776, "z": -0.067956}, "lat": 0, "lon": 0, "pitch": 0.303335, "yaw": -1.140906, "roll": -0.840027, "alt": 8243.515, "pres": 35728.92, "hum": 4.428711, "temp": 42.19}, "time": 1338068}
{"sensors": {"gyro": {"x": -65.13389, "y": -12.33634, "z": 58.93084}, "acc": {"x": 0.019656, "y": -0.186092, "z": 0.107439}, "mag": {"x": 0.011004, "y": 0.087164, "z": 0.091812}, "lat": 0, "lon": 0, "pitch": -0.091219, "yaw": 0.017195, "roll": -1.047202, "alt": 8196.194, "pres": 35960.57, "hum": 4.78125, "temp": 41.51}, "time": 1339214}
{"sensors": {"gyro": {"x": -21.27561, "y": -13.65957, "z": 63.41268}, "acc": {"x": 0.015895, "y": -0.036926, "z": 0.231351}, "mag": {"x": -0.034188, "y": 0.05362, "z": -0.07098}, "lat": 0, "lon": 0, "pitch": -0.067744, "yaw": -0.675992, "roll": -0.158276, "alt": 8178.009, "pres": 36066.05, "hum": 4.348633, "temp": 42.09}, "time": 1340066}
{"sensors": {"gyro": {"x": -33.48974, "y": -30.38066, "z": 32.9449}, "acc": {"x": -0.020224, "y": -0.025393, "z": 0.341839}, "mag": {"x": -0.01876, "y": -0.002744, "z": -0.046256}, "lat": 0, "lon": 0, "pitch": 0.058931, "yaw": 3.033208, "roll": -0.074147, "alt": 8151.687, "pres": 36196.02, "hum": 4.18457, "temp": 41.34}, "time": 1341308}
{"sensors": {"gyro": {"x": -6.752543, "y": -18.38428, "z": 32.97792}, "acc": {"x": -0.022682, "y": -0.045202, "z": 0.332519}, "mag": {"x": 0.041692, "y": 0.028, "z": -0.06916}, "lat": 0, "lon": 0, "pitch": 0.067487, "yaw": 0.871007, "roll": -0.135111, "alt": 8103.768, "pres": 36427.36, "hum": 3.640625, "temp": 41.95}, "time": 1341609}
{"sensors": {"gyro": {"x": 17.44772, "y": -23.59042, "z": 20.50408}, "acc": {"x": -0.008642, "y": -0.125015, "z": 0.306909}, "mag": {"x": 0.028812, "y": 0.069916, "z": -0.070308}, "lat": 0, "lon": 0, "pitch": 0.02607, "yaw": 0.282504, "roll": -0.386812, "alt": 8090.825, "pres": 36509.67, "hum": 3.572266, "temp": 41.92}, "time": 1341909}
{"sensors": {"gyro": {"x": 29.17792, "y": -28.51134, "z": 23.02352}, "acc": {"x": 0.135119, "y": -0.445723, "z": 0.23728}, "mag": {"x": 0.001792, "y": 0.115836, "z": -0.038248}, "lat": 0, "lon": 0, "pitch": -0.261465, "yaw": -0.092916, "roll": -1.081605, "alt": 8078.025, "pres": 36576.5, "hum": 3.640625, "temp": 41.94}, "time": 1342227}
{"sensors": {"gyro": {"x": 39.06609, "y": -27.23657, "z": 40.85732}, "acc": {"x": 0.206122, "y": -0.595345, "z": 0.221264}, "mag": {"x": 0.02856, "y": 0.125636, "z": 0.009492}, "lat": 0, "lon": 0, "pitch": -0.313811, "yaw": 0.11514, "roll": -1.21496, "alt": 8045.694, "pres": 36731.6, "hum": 3.494141, "temp": 41.94}, "time": 1343308}
{"sensors": {"gyro": {"x": -26.09113, "y": -56.50225, "z": 67.0121}, "acc": {"x": 0.199595, "y": -0.200373, "z": 0.047435}, "mag": {"x": -0.005152, "y": -0.021028, "z": 0.059052}, "lat": 0, "lon": 0, "pitch": -0.769823, "yaw": -3.009704, "roll": -1.338343, "alt": 8032.651, "pres": 36807.13, "hum": 3.179688, "temp": 41.89}, "time": 1343609}
{"sensors": {"gyro": {"x": -75.48866, "y": -27.53031, "z": 78.84293}, "acc": {"x": 0.181514, "y": -0.311542, "z": -0.360907}, "mag": {"x": 0.010304, "y": 0.123508, "z": 0.040432}, "lat": 0, "lon": 0, "pitch": -0.363771, "yaw": -0.02515, "roll": -2.429474, "alt": 8021.873, "pres": 36864.35, "hum": 3.280273, "temp": 41.86}, "time": 1343910}
{"sensors": {"gyro": {"x": -36.27768, "y": -43.94125, "z": 104.7611}, "acc": {"x": 0.120189, "y": -0.327911, "z": -0.51362}, "mag": {"x": 0.081284, "y": 0.076944, "z": 0.031108}, "lat": 0, "lon": 0, "pitch": -0.194735, "yaw": 0.704435, "roll": -2.573393, "alt": 7990.236, "pres": 37016.21, "hum": 3.235352, "temp": 41.84}, "time": 1344227}
{"sensors": {"gyro": {"x": -54.23264, "y": -65.87074, "z": 123.7666}, "acc": {"x": 0.066151, "y": 0.054481, "z": -0.417606}, "mag": {"x": 0.0546, "y": -0.021616, "z": -0.034216}, "lat": 0, "lon": 0, "pitch": -0.155802, "yaw": 1.839376, "roll": 3.011866, "alt": 7999.197, "pres": 36989.95, "hum": 3.280273, "temp": 41.85}, "time": 1345212}
{"sensors": {"gyro": {"x": -64.19186, "y": -102.6538, "z": 106.3213}, "acc": {"x": -0.041531, "y": -0.026761, "z": -0.343333}, "mag": {"x": 0.092148, "y": 0.054824, "z": 0.009268}, "lat": 0, "lon": 0, "pitch": 0.12002, "yaw": 0.925709, "roll": -3.063806, "alt": 7947.227, "pres": 37228.28, "hum": 3.111328, "temp": 41.8}, "time": 1346066}
{"sensors": {"gyro": {"x": -97.36274, "y": -89.73208, "z": 125.6185}, "acc": {"x": -0.216445, "y": -0.325298, "z": -0.115541}, "mag": {"x": -0.0707, "y": 0.094248, "z": -0.015344}, "lat": 0, "lon": 0, "pitch": 0.560034, "yaw": -0.751981, "roll": -1.912084, "alt": 7915.631, "pres": 37399.29, "hum": 3.521484, "temp": 41.05}, "time": 1347213}
{"sensors": {"gyro": {"x": -36.39944, "y": -42.49942, "z": 66.46958}, "acc": {"x": -0.106324, "y": -0.162687, "z": -0.314925}, "mag": {"x": 0.07882, "y": 0.055244, "z": 0.055636}, "lat": 0, "lon": 0, "pitch": 0.291418, "yaw": 0.85109, "roll": -2.66476, "alt": 7843.713, "pres": 37753.34, "hum": 2.806641, "temp": 41.57}, "time": 1348066}
{"sensors": {"gyro": {"x": -38.8933, "y": -60.25304, "z": 30.18242}, "acc": {"x": -0.105421, "y": 0.117083, "z": 0.147781}, "mag": {"x": 0.062216, "y": 0.008036, "z": -0.034384}, "lat": 0, "lon": 0, "pitch": 0.509835, "yaw": -0.108385, "roll": 0.670012, "alt": 7848.482, "pres": 37766.32, "hum": 2.958008, "temp": 40.59}, "time": 1349213}
{"sensors": {"gyro": {"x": -50.74614, "y": 8.504571, "z": 38.99993}, "acc": {"x": -0.234251, "y": 0.13278, "z": 0.20343}, "mag": {"x": 0.012096, "y": -0.026236, "z": -0.0462}, "lat": 0, "lon": 0, "pitch": 0.767215, "yaw": 2.601206, "roll": 0.578275, "alt": 7808.565, "pres": 37955.72, "hum": 3.435547, "temp": 41.56}, "time": 1350067}
{"sensors": {"gyro": {"x": -97.94092, "y": -7.544593, "z": 8.910194}, "acc": {"x": -0.24263, "y": 0.116167, "z": -0.006421}, "mag": {"x": -0.011088, "y": 0.075096, "z": 0.089964}, "lat": 0, "lon": 0, "pitch": 1.123673, "yaw": -0.254977, "roll": 1.626018, "alt": 7777.683, "pres": 38120.76, "hum": 2.959961, "temp": 41.02}, "time": 1351213}
{"sensors": {"gyro": {"x": -21.01749, "y": 48.64833, "z": -10.60459}, "acc": {"x": -0.363964, "y": 0.330821, "z": 0.009576}, "mag": {"x": 0.0063, "y": -0.04102, "z": -0.010584}, "lat": 0, "lon": 0, "pitch": 0.832857, "yaw": 2.880815, "roll": 1.541858, "alt": 7734.873, "pres": 38340.63, "hum": 2.558594, "temp": 41.43}, "time": 1352066}
{"sensors": {"gyro": {"x": -3.634742, "y": -4.976585, "z": -30.23968}, "acc": {"x": -0.255438, "y": 0.035992, "z": -0.199288}, "mag": {"x": 0.045668, "y": 0.081312, "z": 0.070224}, "lat": 0, "lon": 0, "pitch": 0.900459, "yaw": 0.40335, "roll": 2.962914, "alt": 7671.773, "pres": 38664.14, "hum": 2.816406, "temp": 41.35}, "time": 1353213}
{"sensors": {"gyro": {"x": -42.62579, "y": -29.25477, "z": 33.14351}, "acc": {"x": -0.409396, "y": 0.022169, "z": -0.559151}, "mag": {"x": 0.06482, "y": 0.066836, "z": 0.062104}, "lat": 0, "lon": 0, "pitch": 0.63162, "yaw": 0.661702, "roll": 3.101965, "alt": 7647.19, "pres": 38822.04, "hum": 2.524414, "temp": 41.32}, "time": 1354066}
{"sensors": {"gyro": {"x": -39.76364, "y": -67.11006, "z": 83.85005}, "acc": {"x": -0.609007, "y": 0.177433, "z": -0.741914}, "mag": {"x": 0.052136, "y": 0.041552, "z": 0.075936}, "lat": 0, "lon": 0, "pitch": 0.673731, "yaw": 0.789507, "roll": 2.906846, "alt": 7629.446, "pres": 38913.24, "hum": 2.827148, "temp": 41.28}, "time": 1355213}
{"sensors": {"gyro": {"x": -13.51991, "y": -39.90855, "z": 24.87704}, "acc": {"x": -0.614976, "y": 0.126441, "z": -0.699586}, "mag": {"x": 0.082936, "y": 0.070336, "z": 0.034664}, "lat": 0, "lon": 0, "pitch": 0.713163, "yaw": 0.759036, "roll": 2.962787, "alt": 7588.979, "pres": 39120.27, "hum": 2.681641, "temp": 41.22}, "time": 1356066}
{"sensors": {"gyro": {"x": -40.65168, "y": -40.09934, "z": 30.15663}, "acc": {"x": -0.530631, "y": 0.018937, "z": -0.653914}, "mag": {"x": -0.052416, "y": 0.121464, "z": 0.019432}, "lat": 0, "lon": 0, "pitch": 0.68149, "yaw": -0.515778, "roll": 3.112642, "alt": 7530.447, "pres": 39425.19, "hum": 2.980469, "temp": 40.62}, "time": 1357308}
{"sensors": {"gyro": {"x": 22.58091, "y": 7.20628, "z": 81.46056}, "acc": {"x": -0.69216, "y": 0.120582, "z": -0.14387}, "mag": {"x": 0.047236, "y": -0.005824, "z": -0.053256}, "lat": 0, "lon": 0, "pitch": 1.305959, "yaw": -0.108385, "roll": 2.444029, "alt": 7475.54, "pres": 39723.97, "hum": 2.81543, "temp": 41.07}, "time": 1357608}
{"sensors": {"gyro": {"x": 65.21148, "y": 0.539524, "z": 65.8912}, "acc": {"x": -0.491508, "y": 0.102834, "z": 0.234764}, "mag": {"x": 0.00518, "y": 0.114548, "z": -0.04578}, "lat": 0, "lon": 0, "pitch": 1.090134, "yaw": -0.063195, "roll": 0.412856, "alt": 7477.056, "pres": 39733.92, "hum": 2.904297, "temp": 41.07}, "time": 1357908}
{"sensors": {"gyro": {"x": 49.72969, "y": 39.65087, "z": 65.14321}, "acc": {"x": -0.335244, "y": -0.04687, "z": 0.238807}, "mag": {"x": 0.029288, "y": 0.126364, "z": -0.00364}, "lat": 0, "lon": 0, "pitch": 0.942881, "yaw": 0.119368, "roll": -0.193804, "alt": 7456.165, "pres": 39849.91, "hum": 2.748047, "temp": 41.08}, "time": 1358222}
{"sensors": {"gyro": {"x": 41.3045, "y": 42.23995, "z": 75.14457}, "acc": {"x": -0.282421, "y": -0.054198, "z": 0.173392}, "mag": {"x": 0.063672, "y": 0.101724, "z": 0.026796}, "lat": 0, "lon": 0, "pitch": 0.999186, "yaw": 0.450882, "roll": -0.302952, "alt": 7424.094, "pres": 40019.32, "hum": 2.826172, "temp": 41.07}, "time": 1359308}
{"sensors": {"gyro": {"x": 24.03285, "y": -8.892293, "z": 21.35666}, "acc": {"x": -0.358965, "y": -0.206741, "z": -0.177315}, "mag": {"x": -0.014196, "y": 0.082376, "z": 0.0805}, "lat": 0, "lon": 0, "pitch": 0.92172, "yaw": -0.279041, "roll": -2.279726, "alt": 7413.508, "pres": 40088.46, "hum": 2.74707, "temp": 41.02}, "time": 1359608}
{"sensors": {"gyro": {"x": 33.97178, "y": -43.33359, "z": -24.22868}, "acc": {"x": -0.449115, "y": -0.312561, "z": -0.251432}, "mag": {"x": 0.041776, "y": 0.087808, "z": 0.067004}, "lat": 0, "lon": 0, "pitch": 0.841764, "yaw": 0.335688, "roll": -2.24823, "alt": 7401.478, "pres": 40154.79, "hum": 2.803711, "temp": 41.01}, "time": 1359909}
{"sensors": {"gyro": {"x": 9.651177, "y": -62.34137, "z": -65.87344}, "acc": {"x": -0.572731, "y": -0.301862, "z": -0.590521}, "mag": {"x": 0.03752, "y": 0.088816, "z": 0.069076}, "lat": 0, "lon": 0, "pitch": 0.712328, "yaw": 0.291321, "roll": -2.669042, "alt": 7390.985, "pres": 40213.3, "hum": 2.702148, "temp": 41}, "time": 1360212}
{"sensors": {"gyro": {"x": -21.68256, "y": -107.2171, "z": -24.10201}, "acc": {"x": -0.707943, "y": -0.328024, "z": -0.406647}, "mag": {"x": 0.014112, "y": 0.101976, "z": -0.055832}, "lat": 0, "lon": 0, "pitch": 0.935024, "yaw": 0.029127, "roll": -2.462806, "alt": 7388.646, "pres": 40230.73, "hum": 2.724609, "temp": 40.98}, "time": 1361066}
